timestamp_hours,timestamp_minutes,timestamp_seconds,latitude,longitude,pressure[hPa],temperature[degC],humidity[percent],altitude,heading,roll,pitch,mag_x,mag_y,mag_z,gyro_x,gyro_y,gyro_z,accel_x,accel_y,accel_z,distance,direction
14,52,47.0,40.14255,139.98844,997.5955069980686,38.87056185091497,43.980010260146294,131.13416274180753,301.4375,-179.8125,2.1875,-26.75,-18.75,-39.6875,0.0011111111111111111,-0.0011111111111111111,-0.0022222222222222222,-0.02,0.17,9.74,82.4073017988346,284.3923389342102
14,52,48.0,40.142555,139.98842833333333,997.542650564701,38.90580136200879,44.31727276339049,131.57974307384484,301.4375,-179.9375,1.75,-27.1875,-18.75,-38.75,0.0,-0.0011111111111111111,0.0033333333333333335,-0.03,0.18,9.7,81.30789340561445,284.18631308352025
14,52,49.0,40.14256,139.98841833333333,997.5754904900585,38.92593823189382,43.9588214183073,131.3028998820816,301.4375,-179.9375,1.75,-28.0,-18.375,-38.0,0.0033333333333333335,0.0,-0.0033333333333333335,-0.04,0.16,9.7,80.347244254762,283.9502187574599
14,52,51.0,40.14256666666667,139.98840833333333,997.4674497782355,38.961177765397586,44.28525511972679,132.21371950537142,301.4375,-179.9375,1.75,-28.25,-18.75,-38.75,0.0,-0.0022222222222222222,-0.0,0.0,0.21,9.71,79.34406667098713,283.5782541120328
14,52,52.0,40.14256666666667,139.98840833333333,997.5413305254046,39.00648575800005,44.43791103619089,131.59087126474572,301.4375,-179.9375,1.75,-28.0,-18.0,-38.375,0.0011111111111111111,-0.0011111111111111111,-0.0,-0.02,0.18,9.74,79.34406667098713,283.5782541120328
14,52,53.0,40.14256666666667,139.98840833333333,997.4996113823905,39.031656875187764,44.26969241775163,131.94257798973635,301.4375,-179.9375,1.75,-28.0,-18.75,-38.375,0.006666666666666667,0.0,0.0011111111111111111,-0.02,0.19,9.74,79.34406667098713,283.5782541120328
14,52,54.0,40.142565,139.98840666666666,997.5928705023408,39.071930677822095,44.30816562163487,131.15638797766132,301.4375,-179.9375,1.75,-26.75,-18.0,-39.25,-0.0011111111111111111,-0.0011111111111111111,0.0022222222222222222,-0.03,0.2,9.75,79.25003201011931,283.7327128544714
14,52,55.0,40.142565,139.98840666666666,997.5399674359777,39.10717027040664,43.927982856202256,131.60236238923716,301.4375,-179.9375,1.75,-28.0,-18.375,-38.375,0.0011111111111111111,0.0011111111111111111,-0.0,-0.01,0.19,9.73,79.25003201011931,283.7327128544714
14,52,56.0,40.142565,139.98840666666666,997.4818156947546,39.122272957308454,43.53120709491295,132.09260538136587,301.1875,-179.9375,1.5625,-28.0,-18.0,-38.0,0.022222222222222223,-0.017777777777777778,0.012222222222222223,0.3,-0.21,9.75,79.25003201011931,283.7327128544714
14,52,57.0,40.142563333333335,139.98840833333333,997.5504474560353,39.14744410796557,43.66737512272907,131.5140139895518,300.3125,-179.875,1.0625,-29.75,-18.0,-39.25,0.028888888888888888,-0.005555555555555556,-0.0011111111111111111,0.36,0.25,9.55,79.43196314588702,283.8384302065384
14,52,58.0,40.142565,139.98840833333333,997.5012000094133,39.11723872805014,43.32996703190797,131.92918509938505,299.9375,-179.875,1.125,-28.25,-18.0,-38.375,-0.024444444444444446,0.0022222222222222222,-0.1711111111111111,-0.11,0.16,9.75,79.3877141723993,283.70841420618024
14,52,59.0,40.142565,139.98840833333333,997.4982310138336,39.13234141669818,43.07449623080785,131.9542151750223,300.25,-178.5625,0.5,-28.25,-16.875,-40.0625,0.09555555555555556,-0.29777777777777775,-0.06444444444444444,0.53,0.21,9.18,79.3877141723993,283.70841420618024
14,53,0.0,40.142565,139.98840833333333,997.5534162525457,39.13234141669818,43.04186531051109,131.48898665300226,300.5625,-179.6875,1.3125,-28.25,-19.5,-36.75,0.006666666666666667,-0.0011111111111111111,-0.024444444444444446,0.01,0.22,9.72,79.3877141723993,283.70841420618024
14,53,1.0,40.142565,139.98841,997.5176157267477,39.1273071868578,43.57475281554387,131.79079371322942,300.5,-179.75,1.1875,-29.0625,-19.0625,-37.5625,0.0022222222222222222,-0.0022222222222222222,-0.0077777777777777776,-0.02,0.07,9.75,79.52549872161018,283.68419976191626
14,53,2.0,40.14256666666667,139.98841,997.537000038738,39.122272957308454,43.525769477267694,131.62737820282922,301.3125,-179.875,0.875,-28.0,-17.25,-38.875,-0.02,-0.015555555555555555,-0.07444444444444444,0.03,-0.27,9.65,79.48192688462142,283.5542520646169
14,53,3.0,40.14256666666667,139.98841166666668,997.5094078558028,39.122272957308454,43.743267416215716,131.85998927929518,305.4375,-179.6875,0.3125,-28.0,-20.25,-37.5625,-0.014444444444444444,0.027777777777777776,-0.8577777777777778,0.42,0.09,9.72,79.6198320223574,283.53033314775087
14,53,4.0,40.14256666666667,139.98841333333334,997.4847843903095,39.10717027040664,43.645257417249574,132.06757750157303,324.1875,-177.75,-1.3125,-21.6875,-24.25,-39.25,0.043333333333333335,-0.29888888888888887,-0.2966666666666667,-0.05,-0.73,10.24,79.75772522397811,283.506496940085
14,53,5.0,40.14256833333334,139.98841333333334,997.5012000094133,39.11723872805014,44.102057816025145,131.92918509938505,345.3125,-173.1875,9.1875,-15.5,-35.375,-34.1875,0.10888888888888888,-0.10555555555555556,-0.85,0.81,1.41,9.34,79.71450695409308,283.3768312899492
14,53,6.0,40.14256666666667,139.98841,997.4542235555934,39.122272957308454,43.98793600570684,132.32522650929232,345.0625,179.75,12.6875,-7.75,-38.0,-32.0,-0.39,-0.03222222222222222,0.20333333333333334,0.05,1.59,9.61,79.48192688462142,283.5542520646169
14,53,7.0,40.14256666666667,139.98840833333333,997.5176157267477,39.1273071868578,44.06953878587375,131.79079371322942,330.6875,-178.25,4.125,-15.875,-30.6875,-34.875,-0.24,-0.02666666666666667,0.044444444444444446,0.58,0.22,10.02,79.34406667098713,283.5782541120328
14,53,8.0,40.14256833333334,139.98841166666668,997.5347253640334,39.087033358612096,43.38408699959204,131.6465542533735,334.6875,-176.875,9.3125,-15.1875,-33.6875,-32.75,-0.10666666666666667,0.32555555555555554,0.22111111111111112,0.5,1.29,9.62,79.57659561839611,283.4004556666803
14,53,9.0,40.14256666666667,139.98841,997.5183086976549,39.07696490446106,43.36768882844016,131.7849517182365,336.25,-177.8125,10.5625,-14.0625,-34.875,-33.1875,-0.06222222222222222,-0.09777777777777778,0.02,0.38,1.83,9.81,79.48192688462142,283.5542520646169
14,53,10.0,40.142565,139.98841,997.4362268407423,39.02662265116815,43.57928561823925,132.47695427318877,336.9375,-177.5625,11.0625,-12.875,-34.875,-33.1875,-0.008888888888888889,0.08666666666666667,-0.012222222222222223,0.38,1.85,9.48,79.52549872161018,283.68419976191626
14,53,11.0,40.142565,139.98841,997.5189909024623,39.02662265116815,43.82935123287513,131.77920048856092,337.0,178.8125,13.0625,-11.75,-36.0,-32.6875,0.3277777777777778,0.29444444444444445,0.04,-0.19,2.43,9.21,79.52549872161018,283.68419976191626
14,53,12.0,40.142561666666666,139.98840833333333,997.428696319976,38.97124620616087,42.9916741634476,132.54044368920074,342.9375,176.625,12.75,-8.375,-36.375,-33.5,0.025555555555555557,0.36444444444444446,-0.14777777777777779,-0.77,2.26,9.19,79.47652844953133,283.96830101701954
14,53,13.0,40.14256,139.98840833333333,997.5098110338777,38.88566449678037,42.72465038287839,131.85659031948072,346.4375,173.0625,3.5625,-3.5625,-31.875,-36.875,-0.17444444444444446,-0.14333333333333334,0.027777777777777776,-1.52,0.85,9.65,79.52152314239792,284.0980255454074
14,53,14.0,40.14256,139.98840833333333,997.573185301842,38.89069871265092,43.05627678169577,131.32233256190207,342.75,-179.5,0.875,-8.25,-28.875,-38.875,-0.0011111111111111111,0.07444444444444444,0.06111111111111111,0.13,0.22,9.78,79.52152314239792,284.0980255454074
14,53,15.0,40.14256,139.98840833333333,997.6260366128921,38.8554592076689,43.208180189520355,130.8768064526262,345.375,-179.0625,0.125,-7.1875,-29.1875,-39.75,-0.07444444444444444,-0.02666666666666667,-0.025555555555555557,-0.02,-0.03,9.59,79.52152314239792,284.0980255454074
14,53,16.0,40.142561666666666,139.98840666666666,997.563295111555,38.80008287150995,42.80555776694345,131.40570703479483,343.875,-178.75,0.3125,-8.6875,-28.5,-40.5625,0.028888888888888888,-0.16777777777777778,-0.04,0.51,0.39,10.3,79.3388865604124,283.9930235336118
14,53,17.0,40.142565,139.988395,997.5064356759021,38.71450133034959,42.783185881762414,131.88504603338748,344.375,-176.625,0.875,-9.5,-30.0,-38.0,0.025555555555555557,0.1288888888888889,0.06333333333333334,0.37,-0.29,9.74,78.28593835845486,283.905197666345
14,53,18.0,40.14256666666667,139.98839166666667,997.5011646502171,38.694364509359005,42.50046963531186,131.92948319423385,339.6875,-174.625,1.5,-13.1875,-28.5,-38.25,0.006666666666666667,0.035555555555555556,-0.10333333333333333,0.85,0.36,9.67,77.96613405932547,283.82294188543074
14,53,19.0,40.14257166666667,139.98838833333335,997.4958922532695,38.674227693025024,43.22297439891054,131.97393210566668,341.4375,-174.5,1.125,-12.5,-28.5,-37.75,0.04777777777777778,-0.023333333333333334,0.016666666666666666,0.9,0.2,9.73,77.55910902949617,283.47373261498285
14,53,20.0,40.142575,139.988385,997.5428260512606,38.66919348966913,43.41850604003251,131.57826368852767,341.4375,-173.6875,1.6875,-13.1875,-29.5625,-37.75,-0.11777777777777777,0.008888888888888889,0.058888888888888886,1.07,0.29,9.72,77.19734054813979,283.2549595289088
14,53,21.0,40.14258,139.98838666666666,997.4853433462281,38.6339540743269,43.83643682513818,132.0628651754832,343.875,-174.25,-0.25,-11.0,-28.5,-39.1875,-0.04666666666666667,-0.07111111111111111,-0.06,1.19,-0.06,9.91,77.20985967780426,282.8287898991941
14,53,22.0,40.142581666666665,139.988385,997.4243246143934,38.66415928660426,43.722662010331526,132.57730148217289,355.3125,-171.9375,-1.375,-7.5625,-27.6875,-39.1875,0.11444444444444445,0.0044444444444444444,-0.0811111111111111,1.36,-0.38,9.63,77.03065436740332,282.71765698455465
14,53,23.0,40.142581666666665,139.98839,997.5674618678754,38.684296100609934,43.684827155463864,131.370581126316,348.9375,-172.8125,0.875,-9.75,-30.375,-39.5,0.028888888888888888,-0.07,0.11,1.2,0.35,9.5,77.44570576414846,282.64836169532214
14,53,25.0,40.14257666666666,139.98839166666667,997.526995024346,38.60878307209932,43.64066800832097,131.71172312619692,347.3125,-172.0625,1.25,-11.0,-30.0,-37.75,0.12,0.028888888888888888,-0.05333333333333334,1.28,0.22,9.58,77.70769239767444,283.02590104576996
14,53,26.0,40.142575,139.98839166666667,997.579202679578,38.62388567256276,44.2816722843766,131.27160629240436,352.0,-170.1875,3.625,-10.5625,-31.375,-37.0,-0.008888888888888889,-0.09,0.06777777777777778,1.63,0.54,9.92,77.74964451517097,283.1591067773337
14,53,27.0,40.14257333333333,139.98839,997.5686408095758,38.5836120771477,43.9065466152611,131.36064262614062,353.25,-173.25,6.8125,-7.875,-32.875,-34.75,0.03222222222222222,0.03111111111111111,0.011111111111111112,0.95,1.31,9.62,77.65408624376275,283.3162266708798
14,53,28.0,40.14257,139.98839,997.4425224417764,38.523201718949714,43.67788312897087,132.42387669696876,353.8125,-172.5625,6.9375,-7.0625,-33.5625,-34.75,-0.011111111111111112,-0.03666666666666667,0.044444444444444446,1.27,1.15,9.64,77.74040769630065,283.58235486442493
14,53,29.0,40.14256833333334,139.98838833333335,997.5392873193649,38.49803074873635,43.46586878699287,131.6080959170517,347.5,-172.75,2.0625,-12.0,-31.375,-36.0,-0.13555555555555557,0.9877777777777778,0.30777777777777776,1.23,0.42,9.65,77.64640858149279,283.74000860542145
14,53,30.0,40.142565,139.98838833333335,997.5498603995958,38.53830430457019,44.02012907436894,131.51896295801137,344.375,-173.3125,-3.0625,-12.0,-26.875,-39.0,0.04555555555555556,-0.07555555555555556,0.017777777777777778,1.15,-0.76,9.93,77.73535312328657,284.00568080730454
14,53,31.0,40.142561666666666,139.988395,997.4759439907788,38.49299655556679,44.209692941170154,132.14210753673652,346.125,-171.0625,0.125,-13.0625,-28.75,-37.0,-0.07555555555555556,-0.2388888888888889,-0.23555555555555555,1.67,-0.02,10.06,78.37588590698567,284.1685116457269
14,53,32.0,40.142555,139.98839833333332,997.5856407068148,38.5433385003591,44.09076951559848,131.21733423767105,349.5,-172.125,0.4375,-10.0,-28.6875,-38.1875,0.18444444444444444,0.03111111111111111,0.04666666666666667,1.31,0.35,9.55,78.83531364943613,284.64101361629355
14,53,33.0,40.142555,139.9884,997.5445745444048,38.518167524324966,44.18824142931728,131.56352356787121,325.9375,-173.0625,-4.125,-19.75,-21.875,-37.25,0.10333333333333333,0.14888888888888888,0.21444444444444444,1.31,-0.8,9.61,78.97251784582045,284.61500571662003
14,53,34.0,40.14255166666667,139.98840166666668,997.5610009348591,38.5282359138655,44.77468935015575,131.42504707912784,319.3125,-172.75,-6.375,-23.75,-18.0625,-39.0625,0.0044444444444444444,0.03666666666666667,-0.0022222222222222222,1.57,-1.01,9.64,79.20414179331256,284.8488604001452
14,53,35.0,40.14255166666667,139.98839833333332,997.5551448847787,38.55844108947203,44.85647907235959,131.47441408865834,319.9375,-172.5,-4.75,-23.75,-20.6875,-39.5,0.01888888888888889,-0.008888888888888889,-0.06666666666666667,1.26,-0.8,9.59,78.92995683718331,284.9016266527842
14,53,36.0,40.14255333333333,139.98839666666666,997.5164341532612,38.56850948366919,45.10632287550424,131.80075481198583,320.25,-172.9375,-5.0625,-23.0,-19.1875,-39.5,0.01,0.03111111111111111,-0.04,1.18,-0.79,9.59,78.74525997862636,284.7977083816826
14,53,37.0,40.14255333333333,139.988395,997.513502886716,38.5836120771477,44.84049243302973,131.8254665075533,322.5,-172.875,-3.0,-23.0,-22.1875,-38.6875,0.03,0.012222222222222223,-0.07666666666666666,1.09,-0.42,9.53,78.60811876464261,284.82411028133924
14,53,38.0,40.14255333333333,139.988395,997.579202679578,38.62388567256276,45.17759336334955,131.27160629240436,323.3125,-174.125,-3.25,-21.875,-21.375,-38.25,-0.0011111111111111111,0.0077777777777777776,-0.06888888888888889,1.04,-0.56,9.71,78.60811876464261,284.82411028133924
14,53,39.0,40.142555,139.98839333333333,997.6120531710976,38.644022477255206,44.74347204704741,130.9946822445567,323.6875,-174.0625,-3.0,-21.1875,-22.1875,-38.25,0.03333333333333333,-0.015555555555555555,0.03,1.15,-0.46,9.78,78.42370056917649,284.71958337673226
14,53,40.0,40.142556666666664,139.98839333333333,997.5539745152337,38.65912508383044,44.515571581944926,131.48428043345703,321.875,-173.125,-3.625,-22.6875,-21.0625,-37.75,0.034444444444444444,-0.04666666666666667,-0.023333333333333334,1.13,-0.73,9.75,78.37675028620659,284.58840469805585
14,53,41.0,40.142556666666664,139.98839333333333,997.5181904575792,38.654090881347656,44.72729909040909,131.78594852453867,321.4375,-173.0625,-2.4375,-23.0,-21.75,-37.75,0.011111111111111112,-0.0077777777777777776,0.03666666666666667,1.26,-0.38,9.73,78.37675028620659,284.58840469805585
14,53,42.0,40.142558333333334,139.98839333333333,997.5510379653648,38.674227693025024,44.66236770035035,131.50903591512312,319.5625,-175.125,-0.875,-22.6875,-22.875,-37.75,-0.09111111111111111,-0.015555555555555555,-0.005555555555555556,0.95,-0.29,9.69,78.33023313642745,284.45706949970565
14,53,43.0,40.14256,139.98839333333333,997.5375504131312,38.64905667915591,44.08642542686409,131.62273842068004,320.0625,-173.5,-0.6875,-22.6875,-22.5625,-37.75,0.08666666666666667,-0.1922222222222222,-0.012222222222222223,1.31,-0.08,9.69,78.28420758505955,284.32557888629856
14,53,44.0,40.142558333333334,139.98839166666667,997.4161136444454,38.65912508383044,43.956175756242935,132.64652841670684,319.625,-173.0625,-0.375,-22.6875,-22.875,-37.0,-0.0044444444444444444,0.017777777777777778,-0.0077777777777777776,1.26,-0.04,9.67,78.1928838581537,284.4830137725566
14,53,45.0,40.142556666666664,139.988395,997.5404855672881,38.6339540743269,43.55399401925009,131.59799443412442,320.25,-173.0625,-0.625,-23.75,-22.5625,-35.6875,-0.034444444444444444,0.03222222222222222,0.0033333333333333335,1.11,-0.13,9.59,78.51400801282423,284.5623368731533
14,53,46.0,40.142555,139.988395,997.5299276861142,38.59368047425524,43.73828778704343,131.68699993916104,320.0625,-172.4375,-0.375,-23.375,-23.25,-36.5625,-0.03,0.03,-0.008888888888888889,1.29,-0.05,9.66,78.56087626659532,284.6933019805981
14,53,47.0,40.142555,139.988395,997.5551448847787,38.55844108947203,43.61847611487343,131.47441408865834,320.0625,-173.3125,1.3125,-23.0,-24.375,-36.1875,0.17888888888888888,0.08222222222222222,0.006666666666666667,0.85,0.16,10.02,78.56087626659532,284.6933019805981
14,53,48.0,40.142555,139.98839666666666,997.5187827614827,38.60374887252692,43.89588381338671,131.7809551908678,318.25,-174.125,5.4375,-23.0,-25.875,-35.25,-0.022222222222222223,0.03,-0.03222222222222222,0.97,1.03,9.52,78.69809980654293,284.6671122158888
14,53,49.0,40.142556666666664,139.988395,997.5047025063012,38.62891987329931,43.95044347264515,131.8996574259972,319.8125,-173.3125,4.625,-22.6875,-26.25,-34.875,-0.03777777777777778,-0.056666666666666664,0.0044444444444444444,1.11,0.7,9.71,78.51400801282423,284.5623368731533
14,53,50.0,40.142556666666664,139.98839333333333,997.5569099680102,38.644022477255206,44.12982223943375,131.45953425938944,319.1875,-172.5,5.125,-24.5,-25.5625,-34.875,0.07555555555555556,-0.042222222222222223,0.016666666666666666,1.51,0.97,9.84,78.37675028620659,284.58840469805585
14,53,51.0,40.142556666666664,139.98839166666667,997.5469319754376,38.55340689281002,43.77591797477984,131.54365002128432,318.25,-171.1875,6.5625,-25.25,-27.0625,-33.5625,0.06888888888888889,-0.006666666666666667,-0.03222222222222222,1.51,1.09,9.58,78.2394826687525,284.6145639873594
14,53,52.0,40.142558333333334,139.98839,997.5363613864389,38.51313332999125,43.37368382206858,131.63276219053026,316.125,-172.6875,6.875,-25.25,-26.6875,-34.5,-0.017777777777777778,0.01,0.16,1.37,1.33,9.44,78.05558220573468,284.50904933394605
14,53,53.0,40.142558333333334,139.98838833333335,997.6354869206718,38.523201718949714,43.82992852443507,130.79714423956904,320.25,-172.75,7.75,-23.75,-27.75,-33.5625,0.06,-0.11,-0.22111111111111112,1.38,1.2,9.63,77.91832843093816,284.53517665612014
14,53,54.0,40.14256,139.98838666666666,997.5416473659232,38.533270109072326,44.13953339446306,131.58820023576953,334.4375,-172.375,3.6875,-18.25,-28.75,-35.25,0.017777777777777778,0.29333333333333333,-0.12222222222222222,1.22,0.65,10.04,77.73465591500886,284.4290384027262
14,53,55.0,40.14256,139.98838833333335,997.5610009348591,38.5282359138655,43.87341834367695,131.42504707912784,332.75,-171.6875,7.125,-19.5,-30.25,-33.1875,-0.028888888888888888,0.09555555555555556,-0.0077777777777777776,1.46,0.99,9.44,77.87200142907845,284.4030366282453
14,53,56.0,40.142561666666666,139.98838666666666,997.5445745444048,38.518167524324966,43.68326598074056,131.56352356787121,330.25,-171.375,3.5625,-19.75,-28.0625,-35.25,0.0011111111111111111,-0.02,0.042222222222222223,1.4,0.52,9.85,77.68851006357067,284.29652306460235
14,53,57.0,40.142563333333335,139.988385,997.5281482533175,38.50809913594858,43.80806167637532,131.702001065353,330.75,-171.8125,3.1875,-19.0625,-27.1875,-36.1875,0.044444444444444446,-0.034444444444444444,0.05555555555555555,1.39,0.54,9.62,77.50545838162755,284.1895058250334
14,53,59.0,40.14257666666666,139.988385,997.558073458101,38.5433385003591,44.682576483200116,131.44972593249562,326.5,-170.6875,1.875,-22.0625,-26.0625,-35.6875,0.01888888888888889,0.01,0.051111111111111114,1.64,0.15,9.61,77.15508812282962,283.1208523902827
14,54,0.0,40.14258,139.98838333333333,997.5440024546692,38.56850948366919,44.791451180221074,131.568346387869,326.875,-168.75,1.4375,-22.75,-25.6875,-36.1875,-0.034444444444444444,-0.0033333333333333335,0.014444444444444444,1.83,0.14,9.8,76.93338117866568,282.87569400689335
14,54,1.0,40.14257833333333,139.98837666666665,997.5387190909224,38.54837269643904,44.21570799499725,131.61288620620198,314.8125,-170.625,-0.4375,-28.1875,-21.1875,-35.75,-0.19444444444444445,0.14777777777777779,-0.7344444444444445,1.94,-0.03,9.16,76.42229084582279,283.1060706799688
14,54,2.0,40.14258,139.98838,997.593279387783,38.59871467324556,44.960115919134424,131.15294113588848,300.9375,-169.125,-4.75,-29.0625,-14.75,-37.5,0.29,-0.13111111111111112,0.5488888888888889,2.29,-0.29,9.97,76.65684818940733,282.92293651739874
14,54,3.0,40.14258,139.98838166666667,997.573334467863,38.654090881347656,45.07481317477017,131.32107509492354,283.8125,-168.0625,-6.25,-34.25,-4.0625,-34.5625,0.09111111111111111,-0.04777777777777778,0.5244444444444445,1.98,-0.79,9.28,76.79506272029177,282.8992727368602
14,54,4.0,40.14257666666666,139.98837666666665,997.5727357611287,38.70443291927222,43.81539176151896,131.32612218326705,257.75,-168.875,-4.8125,-34.5,9.1875,-33.5625,0.10666666666666667,0.32,0.5444444444444444,1.77,-0.77,9.38,76.4646528666255,283.2414711602648
14,54,5.0,40.142575,139.98838,997.59737142671,38.71953553632484,44.74978374851942,131.11844593629513,238.5625,-167.125,-4.625,-30.875,17.5625,-33.5625,0.08888888888888889,0.1,-0.10777777777777778,2.04,-0.42,9.03,76.78329945541262,283.32775390553076
14,54,6.0,40.14256833333334,139.98838666666666,997.5228581852566,38.72456974259112,44.597771626624834,131.7465979764525,289.375,-168.9375,-1.3125,-33.375,-7.0625,-37.375,-0.3655555555555556,-0.5066666666666667,-0.7977777777777778,1.77,-0.42,9.52,77.50866331745468,283.76490935131255
14,54,7.0,40.142561666666666,139.988385,997.5944317860135,38.7346381559968,44.614179668939386,131.14322660112768,319.0,-168.375,-1.125,-27.75,-19.75,-37.5,0.19555555555555557,-0.07777777777777778,-0.36777777777777776,1.5,-0.57,9.29,77.55107253424049,284.3223976302546
14,54,8.0,40.142556666666664,139.98838666666666,997.5832794334762,38.744706570566635,44.57627380173445,131.23723955014415,333.9375,-169.6875,-0.1875,-20.875,-24.875,-38.25,0.13555555555555557,0.021111111111111112,-0.012222222222222223,2.19,-0.56,9.25,77.82785207385918,284.6935953681544
14,54,9.0,40.14255333333333,139.98838666666666,997.6959163156868,38.77994603072875,44.89170706024415,130.28776370525088,340.5,-170.625,-0.875,-17.375,-25.75,-38.6875,0.10444444444444445,-0.10111111111111111,-0.20555555555555555,1.89,-0.22,9.3,77.92279153051966,284.9575132337544
14,54,10.0,40.14254666666667,139.98839,997.6213953192375,38.78498024048749,45.0438448314754,130.91593087556393,333.5,-168.625,-3.0625,-21.1875,-24.875,-37.875,-0.20444444444444446,-0.07888888888888888,0.38,2.3,-1.12,9.25,78.39109758897429,285.42805136888444
14,54,11.0,40.142545,139.98839666666666,997.6079143508937,38.759809194604166,44.7013702103203,131.0295713873327,316.3125,-172.25,0.1875,-25.25,-22.375,-34.875,-0.26555555555555554,-0.013333333333333334,0.5322222222222223,2.62,-1.67,10.54,78.9873287295743,285.4483117960246
14,54,12.0,40.142541666666666,139.98839833333332,997.5668562788701,38.7346381559968,43.94606244712857,131.37568625644448,322.5625,-172.4375,-1.25,-22.1875,-23.5,-37.375,-0.06333333333333334,0.1388888888888889,0.23666666666666666,1.68,-0.83,9.67,79.22347023024275,285.679656118917
14,54,13.0,40.14254,139.98840166666668,997.5809476249044,38.70946712466539,44.99947403778483,131.25689651483248,320.0,-169.375,0.875,-24.75,-23.75,-35.25,-0.06111111111111111,0.12666666666666668,0.13666666666666666,2.16,0.13,9.71,79.54690663871901,285.75310310246334
14,54,14.0,40.142536666666665,139.98840166666668,997.5398885535889,38.684296100609934,43.81519752685656,131.60302738440052,321.4375,-168.875,2.0,-25.1875,-24.875,-34.875,-0.15666666666666668,0.23,-0.12111111111111111,1.93,0.6,9.49,79.64841643317487,286.0100072680534
14,54,15.0,40.142535,139.98839833333332,997.5709901186732,38.61885147211724,43.657056093825695,131.34083793568354,324.875,-173.0625,3.75,-21.375,-26.75,-34.75,-0.03666666666666667,0.3022222222222222,-0.09888888888888889,0.79,0.95,9.3,79.42730053450403,286.19508565316977
14,54,16.0,40.142536666666665,139.98839333333333,997.5357897193333,38.56347528642509,43.44473008586071,131.63758147980832,331.9375,-173.0,1.75,-17.5625,-27.1875,-36.1875,0.035555555555555556,-0.09777777777777778,-0.11777777777777777,1.02,0.31,9.8,78.96697019751834,286.1519126137597
14,54,17.0,40.142538333333334,139.98838666666666,997.5938540137972,38.54837269643904,43.82474330555555,131.14809712836814,332.875,-171.0625,1.625,-18.0625,-27.875,-37.0,0.017777777777777778,-0.29888888888888887,0.42333333333333334,1.45,0.2,9.61,78.37035365421625,286.1370012291396
14,54,18.0,40.142538333333334,139.98838666666666,997.558073458101,38.5433385003591,43.38481025678544,131.44972593249562,335.0,-173.125,2.125,-18.0,-27.5625,-34.75,-0.01,0.21555555555555556,-0.2511111111111111,1.16,0.48,9.33,78.37035365421625,286.1370012291396
14,54,19.0,40.14254,139.98838833333335,997.5967809906099,38.533270109072326,43.88432808256083,131.12342320619197,352.8125,-169.25,1.8125,-9.6875,-28.6875,-36.0625,0.30666666666666664,0.06777777777777778,0.37666666666666665,1.64,0.09,9.33,78.4554840652764,285.9780588952586
14,54,20.0,40.14254,139.98839166666667,997.5856407068148,38.5433385003591,43.830124665882494,131.21733423767105,322.125,-172.5,-2.8125,-21.875,-22.75,-37.0,-0.36444444444444446,0.011111111111111112,0.10666666666666667,1.52,-0.32,10.21,78.72816624626807,285.9212352587555
14,54,21.0,40.142536666666665,139.98839333333333,997.5856407068148,38.5433385003591,43.59118270524175,131.21733423767105,308.0625,-173.0,-2.5,-27.375,-18.75,-37.25,0.17555555555555555,-0.06666666666666667,0.3233333333333333,0.0,0.6,9.14,78.96697019751834,286.1519126137597
14,54,22.0,40.142536666666665,139.98839166666667,997.6196136547194,38.46279140266124,43.22662694624008,130.93094970070814,291.6875,-176.25,-4.6875,-28.375,-8.25,-39.75,-0.20444444444444446,-0.5333333333333333,0.1688888888888889,1.02,-0.06,10.16,78.83078762728525,286.1805880236752
14,54,23.0,40.142535,139.98839,997.5644860736387,38.46279140266124,43.612157881314495,131.39566716865778,290.9375,-175.6875,-1.8125,-29.25,-8.1875,-39.75,0.17666666666666667,0.017777777777777778,-0.10333333333333333,0.69,0.11,9.22,78.74657913929443,286.3389895641186
14,54,24.0,40.142535,139.98839,997.5639273151219,38.51313332999125,43.5854737533633,131.40037752791022,284.0,-177.3125,-1.1875,-30.75,-5.1875,-37.1875,0.5255555555555556,1.8788888888888888,-0.9922222222222222,-0.11,0.39,9.15,78.74657913929443,286.3389895641186
14,54,25.0,40.14253333333333,139.98839166666667,997.5475006264356,38.50306494219694,43.471344319787015,131.5388562018622,298.375,-174.875,-0.375,-28.0625,-14.5,-38.0625,-0.26666666666666666,-0.10111111111111111,-0.0033333333333333335,1.29,-0.45,9.53,78.93499213162292,286.43926129809364
14,54,26.0,40.14253333333333,139.98839333333333,997.5586390930952,38.49299655556679,44.02509819453372,131.44495758158578,289.75,-177.875,-0.1875,-28.875,-8.0625,-39.6875,0.42444444444444446,0.2577777777777778,-0.26555555555555554,0.4,-0.28,9.69,79.07099523249327,286.41017830655227
14,54,27.0,40.14253166666666,139.98839666666666,997.5914932656499,38.51313332999125,44.31306194349097,131.16799788084484,277.3125,-172.5625,-0.875,-32.1875,-3.75,-37.0625,-0.03666666666666667,0.10333333333333333,0.3211111111111111,1.34,-0.03,9.44,79.39556476124352,286.48078510895334
14,54,28.0,40.14253166666666,139.98839833333332,997.610845433966,38.50809913594858,44.77445184052831,131.0048631321077,256.5,-171.375,2.875,-31.875,3.1875,-37.875,0.30666666666666664,-0.8422222222222222,1.0455555555555556,2.37,0.13,10.02,79.53151850610192,286.45179953620146
14,54,29.0,40.14253166666666,139.9884,997.5451358962091,38.46782559408457,44.63284768287971,131.5587912727555,231.75,-173.9375,-2.625,-26.0,20.5,-37.0,0.3844444444444444,0.01888888888888889,0.30777777777777776,1.9,-0.9,9.54,79.66758039193026,286.4229129428515
14,54,30.0,40.14253166666666,139.98840333333334,997.577990466235,38.487962362688265,44.61679416085373,131.28182518566598,216.375,-177.5625,-3.0,-19.875,24.5,-40.375,-1.0222222222222221,0.4577777777777778,-0.2611111111111111,1.39,-1.11,9.95,79.93968738817028,286.3654347350863
14,54,31.0,40.14253333333333,139.98840666666666,997.4571556158496,38.44768883013749,45.24591358268894,132.3005069329293,249.875,-175.25,-2.875,-31.5625,10.0625,-34.75,-0.07333333333333333,0.18,-0.26,0.03,-0.22,9.61,80.16006602298717,286.18106966424773
14,54,32.0,40.142536666666665,139.98841,997.5339987246372,38.47789397780434,45.24087410808215,131.65268000433724,252.9375,-179.75,0.125,-29.75,9.5,-37.75,0.31555555555555553,0.035555555555555556,0.5233333333333333,-0.05,-0.62,9.67,80.33026651937533,285.8705102328938
14,54,33.0,40.142543333333336,139.98841833333333,997.572699877629,38.46782559408457,44.68170058362258,131.32642468068164,246.3125,-177.875,-1.125,-29.0,12.5,-36.5,0.027777777777777776,-0.3088888888888889,0.36,0.71,-0.35,9.9,80.81446675476109,285.22691411137004
14,54,35.0,40.14255166666667,139.98843,997.5650340970288,38.41244950443506,44.659347216051714,131.3910473090785,213.375,-177.625,2.625,-17.25,22.375,-38.5625,-0.07888888888888888,-0.6311111111111111,0.9433333333333334,1.47,-0.67,10.07,81.53703760238837,284.4146842335374
14,54,36.0,40.142556666666664,139.988435,997.5814625741632,38.42251788175199,45.5331893023552,131.2525555294808,201.0625,-176.8125,2.5,-12.1875,26.5,-37.0,0.2544444444444444,-0.008888888888888889,-0.4955555555555556,0.14,0.32,9.76,81.813029393795,283.9629761012939
14,54,37.0,40.14256,139.98843833333333,997.5345523562786,38.427552070847014,45.05028850067121,131.64801275148085,187.6875,-176.875,6.3125,-6.875,23.1875,-40.0,-0.16666666666666666,-0.16666666666666666,0.41444444444444445,0.76,0.88,9.39,81.99995951011195,283.6635391941936
14,54,38.0,40.14256,139.98843833333333,997.5814625741632,38.42251788175199,45.131629050286655,131.2525555294808,195.8125,-178.0,3.6875,-9.5,24.875,-39.5625,-0.32222222222222224,-0.02,-0.04111111111111111,0.06,0.0,9.28,81.99995951011195,283.6635391941936
14,54,39.0,40.14256,139.98844166666666,997.5040682431711,38.44265463987831,45.37609118991703,131.90500455216147,191.9375,179.3125,-3.5,-5.375,31.25,-37.875,-0.03333333333333333,-0.01,-0.35555555555555557,-0.17,-0.75,10.05,82.27566100807937,283.6168793819837
14,54,40.0,40.14256,139.98844166666666,997.4735817576344,38.45775721152895,45.430557351235734,132.16202271356647,195.375,170.5625,-4.4375,-1.25,31.6875,-38.375,-0.06888888888888889,0.017777777777777778,-0.09888888888888889,-1.64,-0.87,9.48,82.27566100807937,283.6168793819837
14,54,41.0,40.14256,139.98844166666666,997.5533495014226,38.47285978579894,45.588134517369724,131.4895493728988,192.3125,-176.0625,-8.0,-7.875,32.375,-34.5,-0.27666666666666667,-0.3388888888888889,-0.09444444444444444,0.9,-1.34,10.2,82.27566100807937,283.6168793819837
14,54,42.0,40.142558333333334,139.988445,997.5257853182028,38.47285978579894,44.90430470814623,131.72192131606468,194.25,-164.4375,1.375,-17.6875,26.0625,-39.0,-0.057777777777777775,-0.2544444444444444,-0.1711111111111111,2.28,-0.73,9.77,82.59501955027483,283.69564116526277
14,54,43.0,40.14256,139.988445,997.4870829604502,38.482928170100784,44.39959580988922,132.0481992214051,229.3125,-154.5625,-1.625,-35.875,20.5625,-31.5,0.7733333333333333,0.023333333333333334,-0.22444444444444445,3.91,0.72,7.9,82.55131710402392,283.5705312225193
14,54,44.0,40.14256,139.98844333333332,997.4595183954741,38.482928170100784,44.03585424114252,132.28058688329395,237.125,-165.75,-4.0625,-33.6875,20.75,-31.0,0.36777777777777776,0.6733333333333333,-0.38666666666666666,2.36,-0.43,8.48,82.4134399004097,283.59366653759054
14,54,45.0,40.14256,139.98844333333332,997.421379784576,38.44265463987831,44.171160040014065,132.60212937784158,226.375,-171.875,4.625,-25.875,15.5625,-41.0625,-0.20666666666666667,0.04888888888888889,0.31444444444444447,1.58,0.67,9.8,82.4134399004097,283.59366653759054
14,54,46.0,40.142558333333334,139.988445,997.4823494018649,38.41244950443506,43.703983144391465,132.0881059066434,193.875,-175.8125,-14.25,-12.6875,33.5,-34.6875,-0.5777777777777777,-0.03666666666666667,1.2333333333333334,1.31,-3.84,9.86,82.59501955027483,283.69564116526277
14,54,47.0,40.142558333333334,139.988445,997.5099109450811,38.41244950443506,43.80170313209012,131.85574802641503,176.4375,-175.375,-7.1875,-2.5625,34.0625,-40.75,0.3411111111111111,-0.10666666666666667,0.056666666666666664,0.96,-1.09,9.46,82.59501955027483,283.69564116526277
14,54,48.0,40.142558333333334,139.988445,997.4993211843572,38.37217600680888,43.996725622572306,131.94502450068862,181.4375,-174.6875,-13.4375,-4.5625,38.0,-36.6875,-0.14666666666666667,0.12222222222222222,-0.11222222222222222,1.32,-3.06,9.53,82.59501955027483,283.69564116526277
14,54,49.0,40.142558333333334,139.98844666666668,997.5462263961699,38.36714182091528,43.87725711360736,131.54959817113414,191.9375,-175.9375,-14.8125,-7.875,37.375,-36.6875,-0.028888888888888888,-0.028888888888888888,0.1111111111111111,0.24,-1.51,8.73,82.73281250846024,283.67238673448605
14,54,50.0,40.142556666666664,139.98844666666668,997.5215831978069,38.352039264980704,44.463278616141075,131.757346543923,203.75,-170.125,-17.5,-14.1875,38.1875,-35.375,-0.4811111111111111,0.17888888888888888,-0.3433333333333333,0.68,-3.27,9.07,82.77685562872853,283.7971680571244
14,54,51.0,40.142556666666664,139.98844666666668,997.5350952545461,38.377210192993516,44.15961541890696,131.6434359856783,201.75,-170.375,-18.5,-15.375,37.6875,-35.875,-0.07111111111111111,-0.07333333333333333,0.04888888888888889,1.18,-2.91,9.01,82.77685562872853,283.7971680571244
14,54,52.0,40.142555,139.98844666666668,997.4717613865624,38.37217600680888,43.89901977673821,132.17736966329866,191.5625,-167.375,-17.0625,-14.375,39.5625,-35.0625,-0.0077777777777777776,-0.2677777777777778,0.08222222222222222,1.94,-2.55,9.39,82.82131158896759,283.9218160514273
14,54,53.0,40.142555,139.98844833333334,997.5157492631092,38.38224437946919,43.546262268044316,131.80652869206304,194.4375,-165.125,-16.6875,-17.875,34.25,-32.5625,-0.06333333333333334,0.024444444444444446,0.013333333333333334,1.82,-2.93,8.1,82.95900089164805,283.8982495206702
14,54,54.0,40.14255333333333,139.98844833333334,997.5650340970288,38.41244950443506,44.88186514505359,131.3910473090785,189.9375,-172.125,-13.125,-10.0625,36.6875,-37.1875,0.37666666666666665,-0.0022222222222222222,0.43777777777777777,1.29,-1.23,10.72,83.0037401860985,284.02256947955533
14,54,55.0,40.14255333333333,139.98845,997.4712145685107,38.42251788175199,43.68779162428842,132.1819797108586,189.375,-172.875,-18.3125,-9.375,37.25,-34.5625,-0.1922222222222222,-0.07222222222222222,0.12222222222222222,1.61,-3.11,8.91,83.14134466175076,283.99888785538445
14,54,56.0,40.14255333333333,139.98845,997.4325165897321,38.43258626023307,43.77475356361139,132.5082351516164,192.1875,-174.5625,-9.8125,-9.6875,33.5625,-39.25,0.17444444444444446,0.09777777777777778,-0.02666666666666667,0.58,-1.67,9.17,83.14134466175076,283.99888785538445
14,54,57.0,40.14255333333333,139.98845166666666,997.4600789619851,38.43258626023307,43.964766443310985,132.2758608820381,190.5,-175.375,-9.8125,-9.25,32.75,-37.5625,0.09333333333333334,0.3566666666666667,0.005555555555555556,0.62,-1.8,9.91,83.27893870064509,283.9752844997487
14,54,58.0,40.14255333333333,139.98845333333333,997.4982211568256,38.47285978579894,43.94345466082782,131.9542982744899,189.125,151.8125,0.6875,19.0,26.5,-42.1875,-0.18555555555555556,0.07888888888888888,0.07777777777777778,-4.44,-0.27,7.59,83.41657649784858,283.95175903325173
14,54,59.0,40.14255333333333,139.988455,997.4266675031697,38.46279140266124,44.26366032513239,132.55754860106876,1.5,126.5,-1.25,36.875,29.0625,-31.5,0.07777777777777778,0.7377777777777778,0.06,-7.72,-0.35,5.61,83.55425783711384,283.9283110788857
14,55,0.0,40.142555,139.988455,997.4565916116502,38.49803074873635,44.18802944954678,132.3052619277966,354.3125,119.8125,-3.9375,41.25,30.875,-24.0625,-0.13555555555555557,-0.16333333333333333,0.027777777777777776,-8.63,-0.75,4.65,83.50981347584256,283.8047605425796
14,55,1.0,40.142555,139.98845666666668,997.4536637314626,38.51313332999125,44.23705253505607,132.32994627415417,355.8125,116.875,-3.1875,41.25,30.875,-22.25,-0.07444444444444444,0.2911111111111111,0.15888888888888889,-8.89,-0.81,3.95,83.64755732547468,283.7815807039395
14,55,2.0,40.142555,139.988455,997.4700887303662,38.523201718949714,44.08513233031321,132.19147129750206,9.6875,99.25,0.3125,46.375,27.5,-13.5625,0.06888888888888889,0.25666666666666665,-0.25222222222222224,-9.76,-0.03,1.39,83.50981347584256,283.8047605425796
14,55,3.0,40.142556666666664,139.988455,997.4038136865232,38.533270109072326,43.79201507085449,132.75023059520026,10.6875,105.0,2.125,45.6875,26.375,-14.0,0.2866666666666667,-0.13,0.24666666666666667,-9.19,-0.29,2.11,83.46572422996474,283.68107894228456
14,55,4.0,40.142556666666664,139.98845666666668,997.5469319754376,38.55340689281002,43.90081750433308,131.54365002128432,3.25,105.125,-0.125,44.0625,27.5,-14.875,-0.5733333333333334,0.3211111111111111,0.27111111111111114,-9.6,-0.34,2.55,83.6035407203611,283.6580907156428
14,55,5.0,40.142556666666664,139.98845666666668,997.5193643231246,38.55340689281002,43.92253869432701,131.77605242063566,9.75,98.9375,-0.3125,46.5625,25.875,-12.375,0.1622222222222222,0.33111111111111113,-0.37666666666666665,-9.4,0.17,1.78,83.6035407203611,283.6580907156428
14,55,6.0,40.142555,139.98845833333334,997.4612976159924,38.56850948366919,43.78692451413923,132.26558671100767,11.875,101.6875,-1.875,45.0625,29.5625,-12.375,0.12777777777777777,-0.28444444444444444,0.35555555555555557,-9.92,-0.25,1.8,83.78529034339027,283.7584770839514
14,55,7.0,40.14255333333333,139.98845833333334,997.4747889560584,38.59368047425524,43.61880261888332,132.15184523323978,9.9375,100.125,-2.4375,45.5,27.1875,-15.875,-0.31222222222222223,0.2833333333333333,-0.16666666666666666,-9.82,-0.88,2.12,83.82958865381062,283.88164620968894
14,55,8.0,40.14255333333333,139.98846,997.4501531360692,38.57857787903049,43.89020499177539,132.35954344805128,10.9375,101.0625,-2.5,45.0625,27.875,-15.5,-0.04888888888888889,0.01,-0.005555555555555556,-9.53,-0.19,1.99,83.96729202402912,283.8584285530129
14,55,9.0,40.14255166666667,139.98846,997.5187827614827,38.60374887252692,43.56458181070769,131.7809551908678,357.1875,95.5,-6.0625,46.1875,31.1875,-6.5625,-0.028888888888888888,-0.12111111111111111,-0.5033333333333333,-9.41,-0.9,1.48,84.01197820562494,283.98127768852277
14,55,10.0,40.14255,139.98846166666667,997.5240612657133,38.62388567256276,43.34749154337054,131.73645561901031,352.4375,92.75,-8.0625,44.6875,32.5625,-4.0,0.3788888888888889,-0.41444444444444445,0.17333333333333334,-10.08,-0.79,0.54,84.19445543746119,284.0804773599276
14,55,12.0,40.14255,139.98846166666667,997.4800668364541,38.61381727196276,43.950292943614144,132.10734933147006,6.8125,96.9375,-3.9375,44.875,28.6875,-10.375,0.10333333333333333,0.14,-0.016666666666666666,-9.81,-0.48,1.64,84.19445543746119,284.0804773599276
14,55,13.0,40.14254833333333,139.98846166666667,997.4442850147447,38.60878307209932,43.586353750567966,132.4090166709725,6.125,97.1875,-3.625,46.375,29.0625,-10.0,0.017777777777777778,-0.03888888888888889,-0.006666666666666667,-9.64,-0.65,1.42,84.23982533401885,284.20287607119883
14,55,14.0,40.14254833333333,139.98846,997.532273404106,38.62891987329931,43.776643000350475,131.66722490030833,7.8125,97.875,-1.625,46.75,28.25,-12.1875,-0.03222222222222222,0.10666666666666667,0.06666666666666667,-9.36,-0.21,1.07,84.10235338363266,284.22658197045536
14,55,15.0,40.14255,139.98846166666667,997.5404855672881,38.6339540743269,43.86359355360662,131.59799443412442,6.75,97.375,-2.875,45.25,28.6875,-10.0,0.02666666666666667,-0.015555555555555555,0.008888888888888889,-9.7,-0.59,1.18,84.19445543746119,284.0804773599276
14,55,16.0,40.14255,139.98846166666667,997.50176685234,38.644022477255206,43.66272264012537,131.92440634488625,6.25,97.375,-3.3125,46.375,29.5,-10.5,0.008888888888888889,-0.013333333333333334,0.0044444444444444444,-9.66,-0.56,1.25,84.19445543746119,284.0804773599276
14,55,17.0,40.14255,139.98846166666667,997.4384125059428,38.63898827564553,43.70612899596656,132.45852711997642,6.125,97.375,-3.375,45.6875,29.75,-10.5,0.01,-0.0022222222222222222,-0.03888888888888889,-9.56,-0.47,1.33,84.19445543746119,284.0804773599276
14,55,18.0,40.14255,139.98846333333333,997.4853433462281,38.6339540743269,43.972218303206404,132.0628651754832,6.1875,97.375,-3.375,45.6875,29.5,-10.0,-0.0077777777777777776,0.021111111111111112,0.02666666666666667,-9.75,-0.63,1.25,84.33209858375298,284.0570356511655
14,55,19.0,40.14255,139.98846333333333,997.4683194300064,38.674227693025024,42.46772875830299,132.20638772885002,6.6875,96.8125,-2.3125,46.375,28.25,-9.5625,-0.043333333333333335,-0.03111111111111111,-0.012222222222222223,-9.56,-0.48,1.25,84.33209858375298,284.0570356511655
14,55,20.0,40.14254833333333,139.988465,997.5428260512606,38.66919348966913,43.82591536953192,131.57826368852767,6.0,95.8125,-2.9375,46.375,28.25,-8.25,-0.013333333333333334,0.06888888888888889,-0.08,-10.05,-0.41,0.84,84.51484655605745,284.15569568214073
14,55,21.0,40.14254833333333,139.988465,997.4683194300064,38.674227693025024,43.72275720500741,132.20638772885002,5.9375,94.75,-2.9375,45.6875,29.0625,-7.5,-0.03222222222222222,0.01,0.03,-9.74,-0.48,0.96,84.51484655605745,284.15569568214073
14,55,22.0,40.14254833333333,139.988465,997.4489576728535,38.67926189667196,43.717372701202294,132.36962219433386,6.5,94.375,-2.5,46.75,28.25,-8.25,0.008888888888888889,-0.012222222222222223,-0.025555555555555557,-9.73,-0.46,0.74,84.51484655605745,284.15569568214073
14,55,23.0,40.14254833333333,139.98846666666665,997.5316768136062,38.67926189667196,43.749965094133564,131.67225431645394,5.375,93.625,-3.75,46.375,29.375,-7.875,0.03777777777777778,-0.015555555555555555,-0.03,-9.76,-0.65,0.56,84.65239557650627,284.13222045720283
14,55,24.0,40.14254666666667,139.98846833333334,997.5205268022496,38.68933030483895,42.47326456976749,131.76625231759513,5.4375,93.5,-3.75,46.0625,29.375,-7.0625,-0.027777777777777776,0.022222222222222223,0.03333333333333333,-9.62,-0.56,0.66,84.83535862626206,284.2303458222799
14,55,25.0,40.14254666666667,139.98846833333334,997.4847419905869,38.684296100609934,43.60334314058924,132.0679349561761,5.25,93.875,-3.625,46.0625,29.375,-7.1875,-0.03888888888888889,-0.04777777777777778,-0.052222222222222225,-9.71,-0.83,0.9,84.83535862626206,284.2303458222799
14,55,26.0,40.14254666666667,139.98846833333334,997.490013265541,38.70443291927222,43.94033080873587,132.02349510143804,5.5625,93.875,-3.5625,45.6875,29.0,-7.5,0.005555555555555556,0.03888888888888889,0.017777777777777778,-9.79,-0.43,0.48,84.83535862626206,284.2303458222799
14,55,27.0,40.14254833333333,139.98846833333334,997.4184436277133,38.694364509359005,43.652327361525614,132.62688421081677,6.0625,95.1875,-2.875,46.75,28.1875,-9.1875,0.04111111111111111,-0.22666666666666666,-0.12666666666666668,-9.76,-0.82,1.1,84.78993452614371,284.1088213913007
14,55,28.0,40.14254833333333,139.98846833333334,997.5011646502171,38.694364509359005,43.72294748229895,131.92948319423385,5.8125,96.875,-3.4375,45.6875,29.6875,-9.1875,-0.01,-0.012222222222222223,-0.0022222222222222222,-9.7,-0.53,1.34,84.78993452614371,284.1088213913007
14,55,29.0,40.14254833333333,139.98847,997.5175874088785,38.70443291927222,44.06526527494723,131.7910324431611,5.9375,96.9375,-3.375,45.6875,29.375,-10.0625,-0.01,0.03777777777777778,0.03,-9.69,-0.59,1.03,84.92751663405701,284.08549812255154
14,55,30.0,40.14254666666667,139.98847,997.5504332232227,38.72456974259112,43.50592103055535,131.51413397414092,6.0625,97.0,-3.375,46.0625,29.0,-9.6875,0.01888888888888889,-0.0022222222222222222,-0.008888888888888889,-9.6,-0.56,0.89,84.97286718668961,284.206838333072
14,55,31.0,40.14254666666667,139.98847,997.4706501132107,38.70946712466539,43.80457569678257,132.18673845455112,6.0,96.9375,-3.4375,46.75,29.0,-10.0625,0.0033333333333333335,-0.005555555555555556,-0.006666666666666667,-9.57,-0.5,1.17,84.97286718668961,284.206838333072
14,55,32.0,40.14254666666667,139.98847,997.4512865601774,38.71450133034959,43.772029740400335,132.34998775192528,6.0625,96.875,-3.375,45.6875,29.375,-9.6875,0.0044444444444444444,-0.006666666666666667,-0.0044444444444444444,-9.61,-0.59,1.18,84.97286718668961,284.206838333072
14,55,33.0,40.14254666666667,139.98847,997.4870721257577,38.71953553632484,43.77207778268872,132.04829056406336,6.0625,96.9375,-3.4375,46.375,28.1875,-8.375,0.008888888888888889,0.0022222222222222222,0.006666666666666667,-9.72,-0.57,1.22,84.97286718668961,284.206838333072
14,55,34.0,40.14254666666667,139.98847166666667,997.5504332232227,38.72456974259112,43.73409783372091,131.51413397414092,6.0625,96.9375,-3.4375,45.6875,28.5625,-9.25,0.0044444444444444444,0.0011111111111111111,-0.0022222222222222222,-9.54,-0.55,1.18,85.11031277907159,284.1834067958541
14,55,35.0,40.142545,139.98847333333333,997.4923407825606,38.739672363136194,43.87548990710803,132.00387286580903,6.125,96.9375,-3.375,46.0625,28.5625,-10.0625,0.0,0.0022222222222222222,-0.005555555555555556,-9.58,-0.6,1.24,85.29345849408116,284.28089541723796
14,55,36.0,40.142545,139.98847333333333,997.4841298886028,38.7346381559968,43.641835588209155,132.07309533738294,6.0625,97.0,-3.4375,46.375,28.5625,-10.5,-0.02,-0.012222222222222223,-0.024444444444444446,-9.57,-0.63,1.1,85.29345849408116,284.28089541723796
14,55,37.0,40.142543333333336,139.988475,997.5474921348621,38.739672363136194,43.8483270395487,131.53892778717722,6.25,97.0625,-3.3125,45.6875,29.375,-9.6875,-0.012222222222222223,-0.008888888888888889,-0.034444444444444444,-9.5,-0.67,1.17,85.47674017859711,284.37796612186077
14,55,38.0,40.142541666666666,139.988475,997.4923407825606,38.739672363136194,43.609284468392055,132.00387286580903,6.25,97.0,-3.3125,46.75,29.375,-10.5,0.013333333333333334,-0.0033333333333333335,-0.01,-9.52,-0.51,1.17,85.52301412425703,284.49836974888035
14,55,39.0,40.142541666666666,139.98847666666666,997.5117053301647,38.7346381559968,43.76135652195438,131.84062062432358,6.3125,96.9375,-3.25,46.0625,28.5625,-9.25,0.0033333333333333335,0.005555555555555556,0.021111111111111112,-9.69,-0.58,1.15,85.66031513559393,284.4746210386524
14,55,40.0,40.14254,139.98847666666666,997.541606665693,38.769877612084386,43.718226536943014,131.588543346819,6.3125,96.9375,-3.25,45.25,30.0625,-10.5625,0.0,0.0044444444444444444,0.006666666666666667,-9.55,-0.54,1.17,85.70696423687322,284.5947142156176
14,55,41.0,40.14254,139.98847666666666,997.5967607019137,38.769877612084386,43.97900818114309,131.12359423629,6.3125,96.9375,-3.25,46.375,29.0,-10.1875,-0.0044444444444444444,0.0033333333333333335,0.0022222222222222222,-9.74,-0.62,1.24,85.70696423687322,284.5947142156176
14,55,43.0,40.142538333333334,139.98847833333335,997.4864527169238,38.769877612084386,43.674760989241996,132.0535125364676,6.3125,96.9375,-3.25,46.375,28.5625,-11.0,-0.0011111111111111111,0.0011111111111111111,-0.0022222222222222222,-9.64,-0.57,1.19,85.8910462251518,284.6906458887741
14,55,43.0,40.142538333333334,139.98847833333335,997.541606665693,38.769877612084386,43.4356905673218,131.588543346819,6.25,97.0,-3.25,45.6875,29.375,-8.75,0.01,0.044444444444444446,0.08222222222222222,-9.91,-0.29,0.83,85.8910462251518,284.6906458887741
14,55,45.0,40.14254,139.98848,997.5140296803771,38.769877612084386,43.674760989241996,131.82102543162662,0.0,90.4375,-2.875,47.875,31.5625,-2.0625,-0.06888888888888889,0.04,-0.06111111111111111,-9.19,-0.3,0.4,85.98149491588431,284.54708651702526
14,55,46.0,40.14254,139.98848,997.5275060628139,38.795048660878095,43.8108306648641,131.70741491985018,330.1875,88.75,-2.875,44.0625,30.375,7.25,-0.9566666666666667,0.08777777777777777,-0.08888888888888889,-9.59,-0.97,-0.14,85.98149491588431,284.54708651702526
14,55,47.0,40.14254,139.98848,997.4641396936032,38.79001445053727,43.935744777085105,132.24162589591506,290.25,82.5,-3.75,37.25,12.5625,30.0625,-0.028888888888888888,0.03888888888888889,0.2866666666666667,-9.65,0.07,-0.02,85.98149491588431,284.54708651702526
14,55,48.0,40.142538333333334,139.98848166666667,997.5439275741601,38.805117082432844,43.65335425654787,131.56897764427967,285.25,83.0625,-3.5,36.25,9.5625,29.0625,0.2288888888888889,0.03333333333333333,-0.20666666666666667,-8.76,-0.2,-0.63,86.16540973174158,284.6428143503848
14,55,49.0,40.14253166666666,139.98848,997.5439275741601,38.805117082432844,43.94132701507794,131.56897764427967,295.25,88.1875,-2.75,38.875,13.5625,24.875,0.09888888888888889,0.07666666666666666,0.08444444444444445,-10.1,-0.77,-0.06,86.21906714273435,285.14380009968147
14,55,50.0,40.14252666666667,139.98847833333335,997.5409808482583,38.82021971694776,43.724133330213526,131.59381911386504,305.375,91.4375,-2.5625,39.1875,18.0625,22.25,-0.09777777777777778,-0.012222222222222223,0.0011111111111111111,-9.25,-0.71,-0.23,86.22954320833043,285.52541271810514
14,55,51.0,40.14252333333334,139.98847333333333,997.5491914914321,38.82525392903481,43.588332874617905,131.52460195090387,294.6875,91.9375,-5.25,40.0625,16.1875,24.0625,-0.10555555555555556,-0.10333333333333333,0.11888888888888889,-9.39,-1.18,-0.22,85.920172581494,285.83977277658335
14,55,52.0,40.142516666666666,139.98847,997.5022429738247,38.83028814141289,43.93614196358507,131.9203924168404,286.75,89.125,-5.5625,39.25,15.0,25.25,-0.20777777777777778,0.20444444444444446,0.0044444444444444444,-10.27,-1.09,0.87,85.85359856368842,286.3679149063712
14,55,53.0,40.14250666666667,139.98846666666665,997.5685600264687,38.82021971694776,43.37635602622485,131.36132362891146,293.1875,87.3125,-4.25,37.25,17.6875,26.1875,0.11222222222222222,-0.13333333333333333,0.2,-8.88,-0.84,-0.74,85.90271898333656,287.133643772661
14,55,54.0,40.1425,139.98846333333333,997.5380330245296,38.83532235408202,43.773180177972264,131.6186698978015,309.1875,86.9375,-7.625,36.5625,23.25,19.6875,1.2422222222222221,-0.0077777777777777776,0.06888888888888889,-10.27,-0.14,0.61,85.85391420211185,287.66270835689056
14,55,55.0,40.142493333333334,139.98845666666668,997.5104532190599,38.83532235408202,42.54491037409705,131.85117643207695,350.6875,90.0625,-5.5625,38.5,27.25,4.375,0.9444444444444444,0.052222222222222225,-0.2644444444444444,-11.33,0.46,-0.27,85.54307951266688,288.25164375716145
14,55,56.0,40.14248666666667,139.98845333333333,997.5022429738247,38.83028814141289,43.843770806907536,131.9203924168404,8.5625,92.5625,-3.875,39.5625,27.75,-5.5625,0.3422222222222222,0.06111111111111111,0.1388888888888889,-9.81,-0.56,-0.51,85.50981064302144,288.7834222347251
14,55,57.0,40.14248666666667,139.98845,997.5656128518666,38.83532235408202,43.74601085449622,131.38616838436656,8.3125,88.0625,-2.8125,39.1875,26.25,-3.875,0.15333333333333332,-0.1688888888888889,0.27666666666666667,-9.47,-0.39,0.62,85.24128483800061,288.84481222755113
14,55,58.0,40.14248666666667,139.98844333333332,997.5268737836024,38.845390780293386,43.58308184076544,131.71274522200397,15.9375,94.75,-2.875,39.0625,24.0,-11.5,-0.37444444444444447,0.006666666666666667,-0.16555555555555557,-10.2,0.26,-1.55,84.70461203736824,288.9687594662888
14,55,59.0,40.14249,139.988435,997.5403442776748,38.87056185091497,43.39853027053526,131.5991855348748,10.5625,85.6875,-8.75,38.375,27.0,-6.875,-0.1811111111111111,-0.5533333333333333,-0.2111111111111111,-11.0,0.55,-0.71,83.91343266821994,288.88654190594355
14,56,0.0,40.142491666666665,139.988425,997.6260366128921,38.8554592076689,43.436441766274235,130.8768064526262,19.0,88.6875,-3.125,39.875,24.6875,-7.25,0.22,-0.24222222222222223,-0.18777777777777777,-8.61,-0.32,-0.67,83.04829222854563,288.955466153448
14,56,1.0,40.142493333333334,139.98841666666667,997.5291829656907,38.880630281200865,43.73013491445067,131.69327814217974,16.625,90.375,-4.1875,38.375,25.375,-9.375,-0.06666666666666667,0.19111111111111112,0.2722222222222222,-9.39,-0.54,2.31,82.31737003537913,288.99366102877065
14,56,2.0,40.142495,139.98840666666666,997.5098110338777,38.88566449678037,43.50736017170931,131.85659031948072,15.125,91.9375,-3.6875,36.5,28.375,-10.25,-0.3211111111111111,0.5211111111111111,1.0666666666666667,-8.8,-0.51,0.31,81.45229999386198,289.0650735657787
14,56,3.0,40.142496666666666,139.98839833333332,997.5127629502823,38.87056185091497,43.653958933621034,131.83170446334842,26.0625,87.1875,2.9375,39.875,25.25,-8.5625,0.34444444444444444,0.2288888888888889,0.7155555555555555,-9.99,-1.54,-1.62,80.72158549869766,289.1050160737081
14,56,4.0,40.142498333333336,139.98838833333335,997.4904387012673,38.89069871265092,43.61066690561603,132.0199084438777,20.0625,88.8125,0.5,40.5625,23.75,-8.1875,-0.13666666666666666,0.07222222222222222,0.30666666666666664,-9.57,-0.94,-0.48,79.85681790971705,289.1790616855293
14,56,5.0,40.1425,139.98837833333334,997.5485544967098,38.8755960659124,43.84420785576502,131.5299719117041,16.4375,92.1875,0.0,39.1875,23.6875,-6.875,-0.07888888888888888,0.3711111111111111,0.17333333333333334,-9.77,-0.74,0.5,78.9921316630619,289.2547284552091
14,56,6.0,40.14250166666667,139.98836833333334,997.5813956195542,38.89573292881251,43.59984319559134,131.25311995193374,14.625,88.0,-3.4375,40.0,24.75,-6.875,-0.3233333333333333,0.005555555555555556,-0.46111111111111114,-9.48,-0.11,-1.73,78.12770288568754,289.3320699368387
14,56,7.0,40.14250166666667,139.98836,997.5649750087956,38.88566449678037,43.65953287267914,131.3915454252005,18.25,88.5625,-0.1875,41.1875,23.6875,-6.875,0.07222222222222222,0.13666666666666666,-0.052222222222222225,-8.67,-0.52,-0.08,77.4588844487516,289.50571317105965
14,56,8.0,40.14250333333333,139.98835,997.5896059619306,38.90076714526513,43.4477086522877,131.1839075953005,15.625,85.9375,-3.0,40.0,25.1875,-5.1875,0.22666666666666666,0.5433333333333333,-0.35888888888888887,-10.47,-0.78,1.39,76.59484152340754,289.5874347286376
14,56,9.0,40.14250666666667,139.98834,997.5344406450018,38.90076714526513,43.48031929971507,131.6489545052414,14.875,85.375,-2.75,41.0625,26.25,-4.375,0.25333333333333335,-0.36444444444444446,-0.06,-8.83,-0.54,-0.99,75.66867173810066,289.53873555260435
14,56,10.0,40.14250666666667,139.98833166666665,997.5098110338777,38.88566449678037,43.746485651175014,131.85659031948072,13.125,89.0,-5.125,39.0625,29.0,-8.5,-0.20333333333333334,0.7977777777777778,0.13666666666666666,-11.34,-1.05,2.56,75.00080807612632,289.71991258778644
14,56,11.0,40.14250666666667,139.988325,997.5009486956228,38.93097245009267,43.74691216975814,131.93130379443392,14.3125,88.5,-8.625,40.25,27.0625,-10.25,-0.32666666666666666,0.7355555555555555,-1.3033333333333332,-10.41,-0.03,3.62,74.46705653390872,289.8671932056963
14,56,12.0,40.14250666666667,139.98831833333332,997.4874848879225,38.90580136200879,43.692327709901065,132.04481074328706,12.875,85.4375,-3.3125,42.0,24.875,-4.375,0.08555555555555555,0.06444444444444444,-1.0233333333333334,-8.96,-0.39,-1.05,73.93372782168296,290.01659958829697
14,56,13.0,40.14250833333333,139.98831,997.4927393236662,38.92593823189382,43.78490927967592,132.0005129510271,16.125,85.3125,-6.1875,40.375,26.25,-8.5625,-0.5977777777777777,-0.023333333333333334,0.20555555555555555,-10.22,-0.31,1.04,73.2039125923365,290.07013776398014
14,56,14.0,40.14250833333333,139.9883,997.5091580922261,38.93600666858256,43.89913814015554,131.86209489127418,20.1875,91.4375,-4.1875,38.75,27.75,-12.5,-0.06,0.013333333333333334,0.38,-8.11,-0.44,-0.27,72.40526965683607,290.30122062326876
14,56,15.0,40.14250833333333,139.98829,997.5531615543003,38.94607510643546,43.38831269535544,131.49113378961925,22.5,90.0625,-0.5625,41.0,24.375,-10.75,0.2511111111111111,0.18,-0.18666666666666668,-11.15,-0.92,-0.37,71.60768485201531,290.5374546675979
14,56,17.0,40.142511666666664,139.988275,997.5173675134724,38.941040887363485,43.46436828632308,131.79288624157257,8.375,89.8125,-1.9375,40.6875,27.0625,-5.1875,-0.4411111111111111,0.5088888888888888,0.16555555555555557,-9.87,-0.4,2.49,70.28231838287523,290.6192334974044
14,56,17.0,40.142511666666664,139.988275,997.550205444849,38.961177765397586,43.5950023711053,131.51605417764725,15.5625,86.0,-6.3125,39.5,28.5625,-7.375,0.2311111111111111,0.08555555555555555,0.2088888888888889,-10.15,-0.23,-0.32,70.28231838287523,290.6192334974044
14,56,18.0,40.142511666666664,139.98826833333334,997.5226202007684,38.961177765397586,43.51346722300017,131.7486042638514,9.625,87.125,-1.0625,41.75,27.0,-2.1875,-0.08,-0.10666666666666667,0.08222222222222222,-8.62,-0.53,1.01,69.75163429956497,290.78333696329355
14,56,20.0,40.142505,139.98825,997.5695809673348,38.956143545452505,43.26337191958454,131.35271708579182,341.375,89.25,1.875,42.1875,24.0625,8.1875,-0.7622222222222222,-0.057777777777777775,0.22333333333333333,-8.56,-0.78,1.0,68.56765813911736,291.82574136392174
14,56,21.0,40.14250333333333,139.98824,997.6024200890045,38.976280426979066,43.606010788126945,131.0758867205643,319.25,93.0625,-1.375,42.1875,19.5625,13.25,0.02,0.1988888888888889,0.015555555555555555,-9.43,-0.66,1.34,67.84842092821917,292.2383558913272
14,56,22.0,40.1425,139.988235,997.6270496888365,38.991383091179884,43.198427280045095,130.8682666092788,318.875,88.25,-1.1875,40.5625,18.875,16.375,-0.058888888888888886,-0.0044444444444444444,-0.025555555555555557,-9.89,0.1,-0.5,67.59686433512255,292.66597071902623
14,56,23.0,40.142498333333336,139.988235,997.6904333336743,38.99641731316224,43.30719998011732,130.3339806503409,318.3125,90.4375,-1.1875,40.5625,19.25,16.375,0.0,0.01,0.012222222222222223,-9.66,-0.36,0.39,67.66858516626287,292.81093057909897
14,56,24.0,40.1425,139.98823666666667,997.6323019972317,39.01151998085552,43.29101717823577,130.82399176776278,317.0625,91.5625,-1.5625,39.75,19.25,17.25,0.0011111111111111111,-0.0033333333333333335,-0.0,-9.65,-0.39,0.4,67.72769434204778,292.6197352519365
14,56,25.0,40.14250166666667,139.98823833333333,997.5800859632155,38.99641731316224,43.49203549872376,131.26416026519132,314.25,91.875,-1.6875,42.0625,17.75,16.75,-0.0022222222222222222,0.0,-0.005555555555555556,-9.68,-0.29,0.44,67.78781800598283,292.42887590862676
14,56,26.0,40.14250333333333,139.98824,997.6621820017374,39.04675954899285,43.50335298689326,130.572118971504,313.125,91.875,-1.6875,42.0625,18.5,17.25,0.0,-0.005555555555555556,-0.0011111111111111111,-9.64,-0.36,0.38,67.84842092821917,292.2383558913272
14,56,27.0,40.142505,139.98823833333333,997.5905854644327,39.03669109949842,43.40540295943476,131.17565051897571,313.0625,91.875,-1.6875,39.75,20.0,17.25,0.0011111111111111111,0.0,0.0011111111111111111,-9.7,-0.26,0.44,67.64702348908718,292.1383640609587
14,56,28.0,40.142505,139.98823833333333,997.5905854644327,39.03669109949842,43.27491715179546,131.17565051897571,313.0625,91.875,-1.6875,41.25,18.5,17.25,0.0022222222222222222,-0.0022222222222222222,-0.0,-9.65,-0.28,0.41,67.64702348908718,292.1383640609587
14,56,29.0,40.14250666666667,139.98823666666667,997.7226110471775,39.066896451474165,43.71556734684301,130.06275242000294,313.0625,91.875,-1.6875,40.875,19.5625,16.75,-0.0011111111111111111,0.0022222222222222222,-0.0022222222222222222,-9.66,-0.32,0.39,67.44582823563411,292.03777538785675
14,56,30.0,40.14250833333333,139.98823666666667,997.5294819176925,39.066896451474165,43.568774201845585,131.69075789210927,313.125,91.875,-1.6875,40.5625,20.0,17.25,-0.0011111111111111111,0.0,-0.0044444444444444444,-9.65,-0.27,0.36,67.37641758574807,291.89152908949404
14,56,31.0,40.14250833333333,139.988235,997.5899067515684,39.087033358612096,43.33514975692432,131.18137197780376,313.0625,91.8125,-1.75,40.1875,18.875,18.0625,-0.006666666666666667,0.0044444444444444444,-0.012222222222222223,-9.69,-0.33,0.43,67.24490414700742,291.93658514090026
14,56,32.0,40.14251,139.988235,997.5899067515684,39.087033358612096,43.58526605997898,131.18137197780376,313.0,91.8125,-1.8125,39.375,19.25,17.25,0.0,0.0011111111111111111,-0.0022222222222222222,-9.71,-0.25,0.37,67.17575652303478,291.7897973274871
14,56,33.0,40.142511666666664,139.98823333333334,997.6286697708213,39.07696490446106,43.422061792502234,130.85460995139377,312.875,91.875,-1.875,41.25,19.25,18.5,0.0022222222222222222,-0.0044444444444444444,-0.0022222222222222222,-9.66,-0.42,0.46,66.97537092160825,291.6874562732931
14,56,34.0,40.142511666666664,139.98823166666668,997.6585429293083,39.11220449908287,43.66161520650586,130.6027941204195,312.6875,91.9375,-2.0,39.75,20.0,16.75,0.05333333333333334,-0.011111111111111112,-0.0044444444444444444,-9.64,-0.71,-0.18,66.84360897240875,291.73238077279484
14,56,35.0,40.142511666666664,139.98823,997.6831704947616,39.1273071868578,43.281109593240735,130.39520061469852,312.6875,92.0625,-2.125,41.25,18.875,15.5,0.023333333333333334,0.0011111111111111111,-0.0,-9.52,-0.25,0.26,66.71185758532464,291.7774827163058
